{
	"facilities": {
		"tonghae": {"name": "Tonghae Satellite Launching Ground", "lat": 40.8499966, "lon": 129.666664},
		"chihari": {"name": "Chihari Missile Base", "lat": 38.62333, "lon": 126.6847},
		"unknown": {"name": "Unknown", "lat": 39.200159, "lon": 125.673256},
		"kittaeryong": {"name": "Kittaeryong Missile Base", "lat": 38.99083, "lon": 127.6236},
		"sohae": {"name": "Sohae Satellite Launching Station", "lat": 39.6596, "lon": 124.7057},
		"wonsan": {"name": "Wonsan Kalma International Airport", "lat": 39.1677, "lon": 127.4817},
		"sunchon": {"name": "Sunchon Airbase", "lat": 39.412594, "lon": 125.89031},
		"hodo": {"name": "Hodo Peninsula", "lat": 39.40167, "lon": 127.5369},
		"hwangju": {"name": "Hwangju", "lat": 38.686834, "lon": 125.702005},
		"kaesong": {"name": "Kaesong", "lat": 37.9382, "lon": 126.5878},
		"nampo": {"name": "Nampo", "lat": 38.7523, "lon": 125.3247},
		"sinpo": {"name": "Sinpo Shipyard", "lat": 40.0368, "lon": 128.1839},
		"panghyon-ab": {"name": "Panghyon Airbase", "lat": 39.927472, "lon": 125.207889},
		"kusong": {"name": "Kusong Testing Ground", "lat": 40.01325, "lon": 125.22302},
		"pukchang": {"name": "Pukchang Airfield", "lat": 39.504417, "lon": 125.964333},
		"koksan": {"name": "Koksan", "lat": 38.78, "lon": 126.67},
		"north-kusong": {"name": "North Kusong Testing Ground", "lat": 40.0659, "lon": 125.2099},
		"lake-yonpung": {"name": "Lake Yonpung", "lat": 39.618283, "lon": 125.8035851},
		"panghyon": {"name": "Panghyon", "lat": 39.872153, "lon": 125.269192},
		"mupyong-ni": {"name": "Mupyong-ni Arms Plant", "lat": 40.611208, "lon": 126.425743},
		"masikryong": {"name": "Masikryong", "lat": 39.065962, "lon": 127.250257},
		"munchon": {"name": "Munchon", "lat": 39.2815, "lon": 127.377},
		"pyongyang": {"name": "Pyongyang International Airport", "lat": 39.200159, "lon": 125.673256},
		"pyongsong": {"name": "Pyongsong Field", "lat": 39.282, "lon": 125.869},
		"baegun": {"name": "Baegun", "lat": 40.029678, "lon": 125.227326},
		"kwail": {"name": "Kwail Airbase", "lat": 38.421522, "lon": 125.024421},
		"hungnam": {"name": "Hungnam", "lat": 39.811611, "lon": 127.66375},
		"tongchon": {"name": "Tongchon", "lat": 38.953797, "lon": 127.891882},
		"sondok-ab": {"name": "Sondok Airbase", "lat": 39.7437, "lon": 127.4732},
		"kaechon": {"name": "Kaechon Airbase", "lat": 39.752321, "lon": 125.899905},
		"yonghung-bay": {"name": "Yonghung Bay", "lat": 39.26, "lon": 127.58},
		"yonpo": {"name": "Yonpo Airport", "lat": 39.78938, "lon": 127.53993},
		"samsok": {"name": "Samsok", "lat": 39.1268, "lon": 125.9579},
		"sangum-ri": {"name": "Sangum-ri", "lat": 39.141, "lon": 127.616},
		"sondok": {"name": "Sondok", "lat": 39.743, "lon": 127.499},
		"sukchon": {"name": "Sukchon", "lat": 39.42, "lon": 125.63},
		"sunan": {"name": "Sunan", "lat": 39.20299, "lon": 125.70926},
		"west-sunan": {"name": "Wast Sunan", "lat": 39.3942, "lon": 125.6773},
		"sonchon": {"name": "Sonchon", "lat": 39.79, "lon": 124.91},
		"taechon": {"name": "Taechon Reservoir", "lat": 39.9857, "lon": 125.5186},
		"uiju": {"name": "Uiju", "lat": 40.025847, "lon": 124.577936},
		"yangdok": {"name": "Yangdok", "lat": 39.275721, "lon": 126.804867},
		"monggumpo": {"name": "Monggumpo", "lat": 38.202, "lon": 124.851},
		"yonghung": {"name": "Yonghung", "lat": 39.538, "lon": 127.241},
		"chunghwa": {"name": "Chunghwa", "lat": 38.86, "lon": 125.8},
		"ryongsong": {"name": "Ryongsong", "lat": 39.123, "lon": 125.785}
	}
}
